{
	"title": "京都〜亀岡ぐるっとサイクリング",
	"date": {
		"date": 2021,
		"month": 8,
		"day": 30
	},
	"updateDate": {
		"date": 2021,
		"month": 9,
		"day": 1,
		"time": "20:00"
	},
	"roadNames": [
		"国道9号線", "府道142号線", "府道402号線", "府道25号線", "国道477号線", "府道363号線", "国道162号線"
	],
	"description": "一日目は旧山陰道を辿って京都から亀岡へ。二日目は亀岡盆地を北上し、国道477号線から山登りを開始。府道363号でショートカットをしながら周山街道を下って京都に戻る。",
	"route": [
		{
			"name": "五条堀川交差点",
			"description": "国道9号線の起点であり今回の旅のスタートです。国道9号は古くは山陰街道と呼ばれていたそうです。",
			"location": {
				"latitude": 34.996287,
				"longitude": 135.752365
			}
		},
		{
			"name": "樫原秤谷交差点",
			"description": "国道9号線は交通量が多いので、ここから旧道に入るといいです。交通量が少なくなるだけでなく、傾斜がなだらかになるので楽に走れます。",
			"location": {
				"latitude": 34.972145,
				"longitude": 135.683620
			}
		},
		{
			"name": "老ノ坂峠トンネル",
			"description": "傾斜はさほどきつくないものの坂がダラダラと続くのでとても辛いです。やっとてっぺんまでたどり着くとトンネルがあります。トンネルは車両用と自転車・歩行者用に別れているので注意が必要です。トンネル内はとても涼しいのでゆっくり走ってクールダウンしましょう。",
			"location": {
				"latitude": 34.990034, 
				"longitude": 135.637166
			},
			"image": [
				"IMG_20210829_1630378.jpg"
			]
		},
		{
			"name": "亀岡駅",
			"description": "意図せず2日目になってしまいました。今日は電車できました。さあ頑張って京都に帰るぞ",
			"location": {
				"latitude": 35.016342,
				"longitude": 135.582463
			},
			"image": [
				"IMG_20210830_1229329.jpg"
			]
		},
		{
			"name": "出雲大神宮",
			"description": "出雲大社の京都分社みたいなものですかね？きれいな湧き水が滾滾と湧いていました。",
			"location": {
				"latitude": 35.058960,
				"longitude": 135.578434
			},
			"image": [
				"IMG_20210830_1257231.jpg"
			]
		},
		{
			"name": "国道477号線へ",
			"description": "国道477号線へ入っていきます。この先の交差点に自販機コーナーがありますが、ここを過ぎると10kmほど補給スポットがありませんのでご注意を。",
			"location": {
				"latitude": 35.082801,
				"longitude": 135.565223
			},
			"image": [
				"IMG_20210830_1315006.jpg"
			]
		},
		{
			"name": "険しい・・・",
			"description": "ヒルクライムしんどい落石注意こわい",
			"location": {
				"latitude": 35.085832,
				"longitude": 135.580859
			},
			"image": [
				"IMG_20210830_1328065.jpg"
			]
		},
		{
			"name": "赤茶けたコンクリ壁",
			"description": "山側から水が滲み出ているみたいでコンクリ壁が赤茶けています。R477は酷道ではありませんが、ここだけ見ると酷道みがありますね笑",
			"location": {
				"latitude": 35.088888, 
				"longitude":135.589774
			},
			"image": [
				"IMG_20210830_1332352.jpg"
			]
		},
		{
			"name": "越畑橋",
			"description": "もうすぐで登りは一旦終わりです。あともうちょい頑張ろう。",
			"location": {
				"latitude": 35.089221,
				"longitude": 135.595085
			},
			"image": [
				"IMG_20210830_1337334.jpg"
			]
		},
		{
			"name": "いつのまにか右京区に入っていたみたい",
			"description": "さっきの越畑橋が京都市と亀岡市の境目だったみたい",
			"location": {
				"latitude": 35.089873,
				"longitude": 135.603481
			},
			"image": [
				"IMG_20210830_1342584.jpg"
			]
		},
		{
			"name": "廻池",
			"description": "府道50号線との接続点です。湖というか池？があります。人工的に作られたもののようですが長い歴史があるみたいですね",
			"location": {
				"latitude": 35.092207,
				"longitude": 135.606443
			},
			"image": [
				"IMG_20210830_1347476.jpg"
			]
		},
		{
			"name": "廻池",
			"description": "ここはゆるい下り坂です。風景もきれいだしとても気持ちがいいです。",
			"location": {
				"latitude": 35.094343,
				"longitude": 135.604839
			},
			"image":[
				"IMG_20210830_1351290.jpg"
			]
		}
	]
}