{
	"title": "京都ー大原ー途中ー和邇ー大津サイクリング",
	"date": {
		"date": 2021,
		"month": 7,
		"day": 11
	},
	"updateDate": {
		"date": 2021,
		"month": 7,
		"day": 12,
		"time": "23:40"
	},
	"roadNames": [
		"国道367号線", "国道277号", "滋賀県道311号", "滋賀県道558号"
	],
	"description": "久々の長距離ライド。国道367号線を登り、途中トンネルを抜けたところで琵琶湖を目指し、湖西の道をひた走ります。前半のヒルクライムで疲れすぎて後半の高速巡航に影響がでないよう休憩と補給が重要です。",
	"route": [
		{
			"name": "北大路駅",
			"description": "12：00出発。怪我なく無事に帰ってこれますように！",
			"location": {
				"latitude": 35.04398,
				"longitude": 135.75868
			}
		},
		{
			"name": "高野橋東詰",
			"description": "北大路通を左折。川端通へ。松ヶ崎の山と比叡山が見えます。まずは八瀬を目指そう",
			"location": {
				"latitude": 35.042544,
				"longitude": 135.779397
			}
		},
		{
			"name": "セブンイレブン京都八瀬駅前店",
			"description": "コンビニで補給＆タバコ休憩",
			"location": {
				"latitude": 35.067924, 
				"longitude": 135.809135
			}
		},
		{
			"name": "大原到着！",
			"description": "高野川の流れを見ながら山道を進むと大原に到着。両側を山に囲まれた道を走ってきただけあって急に開けた町を見てびっくり。大原という地名の意味がわかった気がした。",
			"location": {
				"latitude": 35.1071333,
				"longitude": 135.8235861
			},
			"image": [
				"IMG_20210711_1252166.jpg"
			]
		},
		{
			"name": "長い下り坂",
			"description": "きれいな下り坂。こんな道ばっかだったら楽なのになあ。",
			"location": {
				"latitude": 35.1335889,
				"longitude": 135.8352389
			},
			"image": [
				"IMG_20210711_1324245.jpg"
			]
		},
		{
			"name": "峠むちゃくちゃキツイ",
			"description": "京都市左京区と大津市の境界になっている峠を登っている。まあまあの傾斜がだらだら長く続いているからとてもしんどい。人っ子一人いなくて寂しいというか怖い！",
			"location": {
				"latitude": 35.1446333,
				"longitude": 135.8405806
			},
			"image": [
				"IMG_20210711_1341008.jpg"
			]
		},
		{
			"name": "峠超え",
			"description": "激坂しんどかった。人工的な山が見える。採石場かなんかだろうか。こっからの下り坂＆トンネルはとても気持ちいい",
			"location": {
				"latitude": 35.160983,
				"longitude": 135.856308
			},
			"image": [
				"IMG_20210711_1346225.jpg"
			]
		},
		{
			"name": "途中集落",
			"description": "読みはそのまま、とちゅう、と読むらしい。水系は高野川から和邇川に変わっている。いつのまにか滋賀県だ。ここから国道477号に乗って琵琶湖を目指そう。",
			"location": {
				"latitude": 35.167672,
				"longitude": 135.860293
			},
			"image": [
				"IMG_20210711_1351103.jpg",
				"IMG_20210711_1353375.jpg"
			]
		},
		{
			"name": "県道311号",
			"description": "国道477号を伝って堅田、琵琶湖大橋のほうまで行こうかと思ったのだが、良い道を見つけてしまったので進路変更。すごいなだらかな下り坂。和邇川に沿ってずっと下っていく。車も少なくとても気持ちがいい。",
			"location": {
				"latitude": 35.1577194,
				"longitude": 135.8701417
			},
			"image": [
				"IMG_20210711_1400461.jpg"
			]
		},
		{
			"name": "琵琶湖が見えた！",
			"description": "長い山道も終わり！志賀の市街地と琵琶湖が見えた！",
			"location": {
				"latitude": 35.1568944,
				"longitude": 135.9087583
			},
			"image": [
				"IMG_20210711_1413493.jpg"
			]
		},
		{
			"name": "和邇駅",
			"description": "湖西線和邇駅に到着。駅前の平和堂でおにぎり二つとプロテインを入手。ここでの補給が肝心",
			"location": {
				"latitude": 35.162103,
				"longitude": 135.922208
			},
			"image": [
				"IMG_20210711_1420140.jpg"
			]
		},
		{
			"name": "突然の大雨",
			"description": "滋賀県道558号高島大津線を平均25km/hでノリノリに飛ばしていると急な雷鳴。小雨が降ってきたがまあ大丈夫だろうとそのまま走っていると、たちまちに雨は強くなり、横風も強くなり視界がゼロに。仕方なく通りの店先で雨宿り。",
			"location": {
				"latitude": 35.0659611,
				"longitude": 135.8823583
			},
			"image": [
				"IMG_20210711_1529434.jpg"
			]
		},
		{
			"name": "大津到着！",
			"description": "16:07、やっとの思いで大津到着。雨も少しづつ止み、到着する頃には少し晴れ間も。2年前にビワイチに挑戦したときもゴールはこんな天気だったなあ。",
			"location": {
				"latitude": 35.012814,
				"longitude": 135.866231
			},
			"image": [
				"IMG_20210711_1607115.jpg"
			]
		},
		{
			"name": "お疲れ様でした！",
			"description": "京都までやっと帰ってきた。松屋で一人お疲れ様会！",
			"location": {
				"latitude": 35.028858,
				"longitude": 135.759258
			},
			"image": [
				"IMG_20210711_1742096.jpg"
			]
		}
	]
}